[
    {
        "name": "COSTI Hotel Program Dixon",
        "address": "640 Dixon Rd.",
        "latitude": 43.69059,
        "longitude": -79.57589
    },
    {
        "name": "COSTI Hotel Program Dixon",
        "address": "640 Dixon Rd.",
        "latitude": 43.69059,
        "longitude": -79.57589
    },
    {
        "name": "COSTI Reception Centre",
        "address": "100 Lippincott St",
        "latitude": 43.6577,
        "longitude": -79.4069
    },
    {
        "name": "COSTI Reception Centre",
        "address": "100 Lippincott St",
        "latitude": 43.6577,
        "longitude": -79.4069
    },
    {
        "name": "COSTI Uptown Hotel Program",
        "address": "55 Hallcrown Pl",
        "latitude": 43.77022,
        "longitude": -79.32305
    },
    {
        "name": "COSTI Uptown Hotel Program",
        "address": "55 Hallcrown Pl",
        "latitude": 43.77022,
        "longitude": -79.32305
    },
    {
        "name": "CONC Etobicoke Hotel Program",
        "address": "445 Rexdale Blvd",
        "latitude": 43.71627,
        "longitude": -79.594
    },
    {
        "name": "CONC West End Hotel Program",
        "address": "14 Roncesvalles Ave",
        "latitude": 43.63915,
        "longitude": -79.44625
    },
    {
        "name": "CONC Men's Shelter Lansdowne Ave",
        "address": "973 Lansdowne Ave",
        "latitude": 43.66611,
        "longitude": -79.44621
    },
    {
        "name": "CONC Men's Shelter Bloor St W",
        "address": "850 Bloor St W",
        "latitude": 43.66232,
        "longitude": -79.42408
    },
    {
        "name": "Christie Refugee Welcome Centre",
        "address": "43 Christie St",
        "latitude": 43.6651,
        "longitude": -79.41904
    },
    {
        "name": "TSSS Birkdale Residence",
        "address": "1229 Ellesmere Rd",
        "latitude": 43.76872,
        "longitude": -79.26755
    },
    {
        "name": "885 Scarborough Golf Club Road",
        "address": "885 Scarborough Golf Club Road",
        "latitude": 43.77258,
        "longitude": -79.21978
    },
    {
        "name": "TSSS Downsview Dells",
        "address": "1651 Sheppard Ave W",
        "latitude": 43.74261,
        "longitude": -79.4966
    },
    {
        "name": "Scarborough Women's Shelter - Milner",
        "address": "20 Milner Business Ct",
        "latitude": 43.78793,
        "longitude": -79.23544
    },
    {
        "name": "TSSS Family Residence",
        "address": "4222 Kingston Rd",
        "latitude": 43.76048,
        "longitude": -79.19629
    },
    {
        "name": "TSSS Scarborough Hotel Program 3",
        "address": "4674 Kingston Rd",
        "latitude": 43.77633,
        "longitude": -79.17392
    },
    {
        "name": "TSSS Scarborough Hotel Program 4",
        "address": "4540 Kingston Rd",
        "latitude": 43.77213,
        "longitude": -79.18561
    },
    {
        "name": "TSSS Fort York Residence",
        "address": "38 Bathurst St",
        "latitude": 43.6418,
        "longitude": -79.40182
    },
    {
        "name": "TSSS Fort York Residence",
        "address": "38 Bathurst St",
        "latitude": 43.6418,
        "longitude": -79.40182
    },
    {
        "name": "Progress Avenue Shelter",
        "address": "705 Progress Ave",
        "latitude": 43.7777,
        "longitude": -79.24742
    },
    {
        "name": "Robertson House",
        "address": "291 Sherbourne St",
        "latitude": 43.66049,
        "longitude": -79.37194
    },
    {
        "name": "TSSS Scarborough Village Residence",
        "address": "3306 Kingston Rd",
        "latitude": 43.73382,
        "longitude": -79.22274
    },
    {
        "name": "TSSS Junction Place",
        "address": "731 Runnymede Rd",
        "latitude": 43.66827,
        "longitude": -79.48324
    },
    {
        "name": "TSSS Seaton House",
        "address": "339 George St",
        "latitude": 43.65987,
        "longitude": -79.37454
    },
    {
        "name": "TSSS Seaton House",
        "address": "339 George St",
        "latitude": 43.65987,
        "longitude": -79.37454
    },
    {
        "name": "TSSS Seaton House",
        "address": "339 George St",
        "latitude": 43.65987,
        "longitude": -79.37454
    },
    {
        "name": "TSSS Downtown Response Program",
        "address": "76 Church St",
        "latitude": 43.65076,
        "longitude": -79.37472
    },
    {
        "name": "TSSS Seaton House",
        "address": "339 George St",
        "latitude": 43.65987,
        "longitude": -79.37454
    },
    {
        "name": "Streets to Homes Assessment and Referral Centre (SHARC)",
        "address": "129 Peter St",
        "latitude": 43.64869,
        "longitude": -79.39339
    },
    {
        "name": "TSSS North Hotel Program",
        "address": "3600 Steeles Ave W",
        "latitude": 43.77188,
        "longitude": -79.53888
    },
    {
        "name": "TSSS North York West Hotel Program",
        "address": "1677 Wilson Ave",
        "latitude": 43.71938,
        "longitude": -79.51472
    },
    {
        "name": "TSSS North York West Hotel Program",
        "address": "1677 Wilson Ave",
        "latitude": 43.71938,
        "longitude": -79.51472
    },
    {
        "name": "TSSS North York West Hotel Program",
        "address": "1677 Wilson Ave",
        "latitude": 43.71938,
        "longitude": -79.51472
    },
    {
        "name": "TSSS North York West Hotel Program",
        "address": "1677 Wilson Ave",
        "latitude": 43.71938,
        "longitude": -79.51472
    },
    {
        "name": "TSSS Downtown Hotel Program",
        "address": "77 Ryerson Ave",
        "latitude": 43.64999,
        "longitude": -79.40297
    },
    {
        "name": "TSSS Womens' Residence",
        "address": "674 Dundas St W",
        "latitude": 43.65179,
        "longitude": -79.40356
    },
    {
        "name": "Cornerstone Place",
        "address": "616 Vaughan Rd",
        "latitude": 43.69197,
        "longitude": -79.43967
    },
    {
        "name": "CHT Thrive Transitional Shelter",
        "address": "18 Fourteenth Street",
        "latitude": 44.28414,
        "longitude": -79.88064
    },
    {
        "name": "Covenant House Gerrard St E",
        "address": "20 Gerrard St E",
        "latitude": 43.65926,
        "longitude": -79.38128
    },
    {
        "name": "Covenant House - Madison",
        "address": "158 Madison Ave.",
        "latitude": 43.67403,
        "longitude": -79.40551
    },
    {
        "name": "Covenant House Gerrard St E",
        "address": "20 Gerrard St E",
        "latitude": 43.65926,
        "longitude": -79.38128
    },
    {
        "name": "Covenant House Gerrard St E",
        "address": "20 Gerrard St E",
        "latitude": 43.65926,
        "longitude": -79.38128
    },
    {
        "name": "Covenant House Gerrard St E",
        "address": "20 Gerrard St E",
        "latitude": 43.65926,
        "longitude": -79.38128
    },
    {
        "name": "Covenant House McGill St",
        "address": "21 McGill St",
        "latitude": 43.66009,
        "longitude": -79.38141
    },
    {
        "name": "Dixon Hall 351 Lake Shore Blvd E Respite",
        "address": "351 Lake Shore Blvd E",
        "latitude": 43.6482,
        "longitude": -79.35979
    },
    {
        "name": "HFS 195 Princes' Blvd ",
        "address": "195 Princes' Blvd",
        "latitude": 43.63239,
        "longitude": -79.42103
    },
    {
        "name": "Dixon Hall 354 George St",
        "address": "354 George St",
        "latitude": 43.65948,
        "longitude": -79.37438
    },
    {
        "name": "Dixon Hall Heyworth House",
        "address": "2714 Danforth Ave",
        "latitude": 43.68897,
        "longitude": -79.29822
    },
    {
        "name": "Dixon Hall Schoolhouse",
        "address": "349 George St",
        "latitude": 43.66006,
        "longitude": -79.37462
    },
    {
        "name": "Eva's Phoenix",
        "address": "60 Brant St",
        "latitude": 43.64691,
        "longitude": -79.39842
    },
    {
        "name": "Eva's Place",
        "address": "360 Lesmill Rd",
        "latitude": 43.76374,
        "longitude": -79.36083
    },
    {
        "name": "Eva's Satellite Scarborough Hotel Program",
        "address": "4584 Kingston Rd",
        "latitude": 43.77401,
        "longitude": -79.18337
    },
    {
        "name": "Fife House Denison Ave",
        "address": "70 Denison Ave",
        "latitude": 43.65027,
        "longitude": -79.40156
    },
    {
        "name": "Fife House Sherbourne St",
        "address": "490 Sherbourne St",
        "latitude": 43.66768,
        "longitude": -79.37492
    },
    {
        "name": "Fred Victor Centre Transition to Housing Dundas St E",
        "address": "386 Dundas St E",
        "latitude": 43.65897,
        "longitude": -79.36812
    },
    {
        "name": "Fred Victor Mary Sheffield House",
        "address": "512 Jarvis St",
        "latitude": 43.66769,
        "longitude": -79.37892
    },
    {
        "name": "Adelaide Resource Centre for Women",
        "address": "67 Adelaide St E",
        "latitude": 43.65112,
        "longitude": -79.37522
    },
    {
        "name": "Fred Victor Centre Fatima House",
        "address": "1059 College Street",
        "latitude": 43.65291,
        "longitude": -79.43077
    },
    {
        "name": "Fred Victor Centre Bethlehem United Shelter",
        "address": "1161 Caledonia Rd",
        "latitude": 43.71553,
        "longitude": -79.46757
    },
    {
        "name": "Fred Victor Uptown Hotel Program",
        "address": "185 Yorkland Blvd",
        "latitude": 43.77089,
        "longitude": -79.33593
    },
    {
        "name": "Fred Victor Centre 1A Strachan Ave Respite",
        "address": "1A Strachan Ave",
        "latitude": 48.47648,
        "longitude": -81.2153
    },
    {
        "name": "Fred Victor Elizabeth",
        "address": "81 Elizabeth Street",
        "latitude": 43.65423,
        "longitude": -79.3847
    },
    {
        "name": "HFS 195 Princes' Blvd ",
        "address": "195 Princes' Blvd",
        "latitude": 43.63239,
        "longitude": -79.42103
    },
    {
        "name": "Good Shepherd Centre",
        "address": "412 Queen St E",
        "latitude": 43.65604,
        "longitude": -79.3625
    },
    {
        "name": "Good Shepherd Centre",
        "address": "412 Queen St E",
        "latitude": 43.65604,
        "longitude": -79.3625
    },
    {
        "name": "Good Shepherd Centre Barrett House",
        "address": "35 Sydenham St",
        "latitude": 42.83672,
        "longitude": -80.30268
    },
    {
        "name": "Good Shepherd Centre",
        "address": "412 Queen St E",
        "latitude": 43.65604,
        "longitude": -79.3625
    },
    {
        "name": "Good Shepherd Centre West End Hotel Program",
        "address": "335 Jarvis St",
        "latitude": 43.66028,
        "longitude": -79.3758
    },
    {
        "name": "HFS Kennedy Rd Women's Shelter",
        "address": "702 Kennedy Rd",
        "latitude": 43.72831,
        "longitude": -79.26632
    },
    {
        "name": "HFS 545 Lake Shore Blvd W Shelter",
        "address": "545 Lake Shore Blvd W",
        "latitude": 43.63677,
        "longitude": -79.3989
    },
    {
        "name": "HFS 545 Lake Shore Blvd W Shelter",
        "address": "545 Lake Shore Blvd W",
        "latitude": 43.63677,
        "longitude": -79.3989
    },
    {
        "name": "HFS 545 Lake Shore Blvd W Shelter",
        "address": "545 Lake Shore Blvd W",
        "latitude": 43.63677,
        "longitude": -79.3989
    },
    {
        "name": "HFS 545 Lake Shore Blvd W Shelter",
        "address": "545 Lake Shore Blvd W",
        "latitude": 43.63677,
        "longitude": -79.3989
    },
    {
        "name": "HFS - Lawrence East Shelter",
        "address": "4117 Lawrence Ave E",
        "latitude": 43.76676,
        "longitude": -79.19367
    },
    {
        "name": "HFS Willowdale Centre",
        "address": "5800 Yonge St",
        "latitude": 43.78455,
        "longitude": -79.41673
    },
    {
        "name": "HFS Willowdale Centre",
        "address": "5800 Yonge St",
        "latitude": 43.78455,
        "longitude": -79.41673
    },
    {
        "name": "HFS Willowdale Centre",
        "address": "5800 Yonge St",
        "latitude": 43.78455,
        "longitude": -79.41673
    },
    {
        "name": "Multiple Youth & Adult Agencies Scarborough Hotel Program",
        "address": "2035 Kennedy Rd",
        "latitude": 43.77641,
        "longitude": -79.28513
    },
    {
        "name": "HFS - Metro Strachan",
        "address": "22 Metropolitan Rd",
        "latitude": 43.76782,
        "longitude": -79.3
    },
    {
        "name": "HFS - Metro Strachan",
        "address": "22 Metropolitan Rd",
        "latitude": 43.76782,
        "longitude": -79.3
    },
    {
        "name": "HFS Placer",
        "address": "101 Placer Ct",
        "latitude": 43.80254,
        "longitude": -79.3416
    },
    {
        "name": "HFS St. Clair Ave E Shelter",
        "address": "3576 St Clair Ave E",
        "latitude": 43.71732,
        "longitude": -79.25788
    },
    {
        "name": "Horizons for Youth",
        "address": "422 Gilbert Ave",
        "latitude": 43.68953,
        "longitude": -79.46212
    },
    {
        "name": "Kennedy House Youth Shelter",
        "address": "1076 Pape Ave",
        "latitude": 43.69097,
        "longitude": -79.3494
    },
    {
        "name": "Margaret's 21 Park Rd Respite ",
        "address": "21 Park Rd",
        "latitude": 43.67201,
        "longitude": -79.38471
    },
    {
        "name": "Na-Me-Res",
        "address": "14 Vaughan Rd",
        "latitude": 43.68153,
        "longitude": -79.41806
    },
    {
        "name": "Na-Me-Res",
        "address": "14 Vaughan Rd",
        "latitude": 43.68153,
        "longitude": -79.41806
    },
    {
        "name": "Sagatay ",
        "address": "26 Vaughan Rd",
        "latitude": 43.68197,
        "longitude": -79.41859
    },
    {
        "name": "Native Child & Family Services Toronto",
        "address": "558 Bathurst St",
        "latitude": 43.65851,
        "longitude": -79.40851
    },
    {
        "name": "Native Child & Family - Spadina",
        "address": "111 Spadina Rd",
        "latitude": 43.67112,
        "longitude": -79.40562
    },
    {
        "name": "Sistering",
        "address": "962 Bloor St W",
        "latitude": 43.66129,
        "longitude": -79.42876
    },
    {
        "name": "SVDP Amelie House",
        "address": "126 Pape Ave",
        "latitude": 43.66289,
        "longitude": -79.33821
    },
    {
        "name": "SVDP Elisa House",
        "address": "60 Newcastle St",
        "latitude": 43.6179,
        "longitude": -79.49712
    },
    {
        "name": "SVDP Elisa House",
        "address": "60 Newcastle St",
        "latitude": 43.6179,
        "longitude": -79.49712
    }
]