[
    {
        "name": "Birchmount Residence",
        "latitude": 43.6915897585093,
        "longitude": -79.2642263083973
    },
    {
        "name": "Birkdale Residence",
        "latitude": 43.7685974769231,
        "longitude": -79.2673747307692
    },
    {
        "name": "Christie Ossington Men's Hostel",
        "latitude": 43.6658599,
        "longitude": -79.4459185769231
    },
    {
        "name": "Christie Refugee Welcome Centre",
        "latitude": 43.6651723,
        "longitude": -79.4188638
    },
    {
        "name": "Cornerstone Place",
        "latitude": 43.6919186,
        "longitude": -79.4398677
    },
    {
        "name": "COSTI Reception Centre",
        "latitude": 43.6579266473684,
        "longitude": -79.4071056368421
    },
    {
        "name": "Covenant House",
        "latitude": 43.6595035,
        "longitude": -79.3814353
    },
    {
        "name": "Dixon Hall - Heyworth House",
        "latitude": 43.689112648,
        "longitude": -79.298146284
    },
    {
        "name": "Dixon Hall - Schoolhouse",
        "latitude": 43.660052,
        "longitude": -79.374465
    },
    {
        "name": "Downsview Dells",
        "latitude": 43.742472,
        "longitude": -79.4965543
    },
    {
        "name": "Eagles Nest Transition House",
        "latitude": 43.658445145098,
        "longitude": -79.4087305686274
    },
    {
        "name": "Eva's Phoenix",
        "latitude": 43.6458855,
        "longitude": -79.3979913
    },
    {
        "name": "Eva's Place",
        "latitude": 43.763328,
        "longitude": -79.3609144199367
    },
    {
        "name": "Eva's Satellite",
        "latitude": 43.77280625,
        "longitude": -79.4147491381521
    },
    {
        "name": "Family Residence",
        "latitude": 43.7607355,
        "longitude": -79.1966999325361
    },
    {
        "name": "Fred Victor Women's Hostel",
        "latitude": 43.6520802,
        "longitude": -79.3743488
    },
    {
        "name": "Fred Victor, BUS",
        "latitude": 43.7156276,
        "longitude": -79.4674122
    },
    {
        "name": "FV Women's Transition to Housing",
        "latitude": 43.661551,
        "longitude": -79.3788001
    },
    {
        "name": "Good Shepherd Centre",
        "latitude":  43.65604,
        "longitude":  -79.3625
    },
    {
        "name": "HFS - Kennedy Shelter",
        "latitude": 43.656175,
        "longitude": -79.3624789
    },
    {
        "name": "HFS - Savard's Womens' Shelter",
        "latitude": 43.72783979,
        "longitude": -79.26629156
    },
    {
        "name": "HFS - Scarborough Shelter",
        "latitude": 43.658377,
        "longitude": -79.4432364
    },
    {
        "name": "HFS - Strachan House",
        "latitude": 43.71729495,
        "longitude": -79.2587374833333
    },
    {
        "name": "Horizons for Youth",
        "latitude": 43.68953,
        "longitude": -79.46212
    },
    {
        "name": "Kennedy House Youth Shelter",
        "latitude":  43.69097,
        "longitude":  -79.3494
    },
    {
        "name": "Na-Me-Res",
        "latitude": 43.6814522,
        "longitude": -79.4181972
    },
    {
        "name": "Red Door Queen Street",
        "latitude": 43.6601389,
        "longitude": -79.3429398
    },
    {
        "name": "Robertson House",
        "latitude": 43.6604847,
        "longitude": -79.3717112
    },
    {
        "name": "S2H Assessment and Referral Ctre",
        "latitude": 43.6510367,
        "longitude": -79.3751524666667
    },
    {
        "name": "Salvation Army - Evangeline Res",
        "latitude": 43.6487433,
        "longitude": -79.3931384
    },
    {
        "name": "Salvation Army - Florence Booth",
        "latitude": 43.665538,
        "longitude": -79.4631271
    },
    {
        "name": "Salvation Army - Gateway",
        "latitude": 43.64649445,
        "longitude": -79.4063005317308
    },
    {
        "name": "Salvation Army - Maxwell Meighen",
        "latitude": 43.6522086666667,
        "longitude": -79.372521
    },
    {
        "name": "Salvation Army - New Hope Leslie",
        "latitude": 43.6646584,
        "longitude": -79.3736596
    },
    {
        "name": "Scarborough Village Residence",
        "latitude": 43.6620206,
        "longitude": -79.3294881
    },
    {
        "name": "Scott Mission Men's Ministry",
        "latitude": 43.739153,
        "longitude": -79.5656501661671
    },
    {
        "name": "Seaton House",
        "latitude": 43.7342038853474,
        "longitude": -79.2225310558894
    },
    {
        "name": "Sojourn House",
        "latitude": 43.65866645,
        "longitude": -79.4007546474985
    },
    {
        "name": "Sojourn House - Queens Drive",
        "latitude": 43.6597004527806,
        "longitude": -79.3743233544945
    },
    {
        "name": "St. Simon's Shelter",
        "latitude": 43.6545261,
        "longitude": -79.3668494
    },
    {
        "name": "Street Haven",
        "latitude": 43.7071985,
        "longitude": -79.5042485576923
    },
    {
        "name": "Streets To Homes",
        "latitude": 43.6718012,
        "longitude": -79.3737851342082
    },
    {
        "name": "SVDP - Amelie House",
        "latitude": 43.659289,
        "longitude": -79.37272525
    },
    {
        "name": "SVDP - Elisa House",
        "latitude": 43.6487433,
        "longitude": -79.3931384
    },
    {
        "name": "Toronto Community Hostel",
        "latitude": 43.6625359142857,
        "longitude": -79.3382021428571
    },
    {
        "name": "Women's Residence",
        "latitude": 43.6179513,
        "longitude": -79.5808276
    },
    {
        "name": "YMCA House",
        "latitude": 43.798116454734,
        "longitude": -79.4973594
    },
    
    {
        "name": "COSTI Hotel Program Dixon",
        "address": "640 Dixon Rd.",
        "latitude": 43.69059,
        "longitude":  -79.57589
    },
    {
        "name": "COSTI Uptown Hotel Program",
        "address": "55 Hallcrown Pl",
        "latitude":  43.77022,
        "longitude": -79.32305
    },
    {
        "name": "CONC Etobicoke Hotel Program",
        "address": "445 Rexdale Blvd",
        "latitude": 39.7821,
        "longitude": -121.57828
    },
    {
        "name": "CONC West End Hotel Program",
        "address": "14 Roncesvalles Ave",
        "latitude": 38.89036,
        "longitude": -77.03196
    },
    {
        "name": "CONC Men's Shelter Lansdowne Ave",
        "address": "973 Lansdowne Ave",
        "latitude": 39.92866,
        "longitude": -75.11057
    },
    {
        "name": "CONC Men's Shelter Bloor St W",
        "address": "850 Bloor St W",
        "latitude": 40.9652,
        "longitude": -76.60166
    },
    {
        "name": "TSSS Birkdale Residence",
        "address": "1229 Ellesmere Rd",
        "latitude": 26.31703,
        "longitude": -80.14058
    },
    {
        "name": "Scarborough Golf Club Road",
        "address": "885 Scarborough Golf Club Road",
        "latitude": 38.89036,
        "longitude": -77.03196
    },
    {
        "name": "TSSS Downsview Dells",
        "address": "1651 Sheppard Ave W",
        "latitude": 36.92303,
        "longitude": -76.23113
    },
    {
        "name": "Scarborough Women's Shelter - Milner",
        "address": "20 Milner Business Ct",
        "latitude": 30.25127,
        "longitude": -98.90784
    },
    {
        "name": "TSSS Family Residence",
        "address": "4222 Kingston Rd",
        "latitude": 46.86194,
        "longitude": -92.12434
    },
    {
        "name": "TSSS Scarborough Hotel Program 3",
        "address": "4674 Kingston Rd",
        "latitude": 36.51369,
        "longitude": -88.78905
    },
    {
        "name": "TSSS Scarborough Hotel Program 4",
        "address": "4540 Kingston Rd",
        "latitude": 38.66404,
        "longitude": -77.34357
    },
    {
        "name": "TSSS Fort York Residence",
        "address": "38 Bathurst St",
        "latitude": 42.9819,
        "longitude": -78.84532
    },
    {
        "name": "Progress Avenue Shelter",
        "address": "705 Progress Ave",
        "latitude": 42.50355,
        "longitude": -92.40226
    },
    {
        "name": "TSSS Scarborough Village Residence",
        "address": "3306 Kingston Rd",
        "latitude": 36.7435,
        "longitude": -97.05938
    },
    {
        "name": "TSSS Junction Place",
        "address": "731 Runnymede Rd",
        "latitude": 37.04645,
        "longitude": -76.85397
    },
    {
        "name": "TSSS Seaton House",
        "address": "339 George St",
        "latitude": 40.50661,
        "longitude": -74.24012
    },
    {
        "name": "TSSS Downtown Response Program",
        "address": "76 Church St",
        "latitude": 42.32297,
        "longitude": -71.64901
    },
    {
        "name": "Streets to Homes Assessment and Referral Centre (SHARC)",
        "address": "129 Peter St",
        "latitude": 40.32433,
        "longitude": -78.91196
    },
    {
        "name": "TSSS North Hotel Program",
        "address": "3600 Steeles Ave W",
        "latitude": 34.4048,
        "longitude": -85.75964
    },
    {
        "name": "TSSS North York West Hotel Program",
        "address": "1677 Wilson Ave",
        "latitude": 39.93074,
        "longitude": -82.96875
    },
    {
        "name": "TSSS Downtown Hotel Program",
        "address": "77 Ryerson Ave",
        "latitude": 41.04813,
        "longitude": -74.76158
    },
    {
        "name": "TSSS Womens' Residence",
        "address": "674 Dundas St W",
        "latitude": 36.92445,
        "longitude": -78.07713
    },
    {
        "name": "CHT Thrive Transitional Shelter",
        "address": "18 Fourteenth Street",
        "latitude": 40.10478,
        "longitude": -74.21126
    },
    {
        "name": "Covenant House Gerrard St E",
        "address": "20 Gerrard St E",
        "latitude": 39.17648,
        "longitude": -78.16753
    },
    {
        "name": "Covenant House - Madison",
        "address": "158 Madison Ave.",
        "latitude": 40.7467,
        "longitude": -73.98374
    },
    {
        "name": "Covenant House McGill St",
        "address": "21 McGill St",
        "latitude": 41.03705,
        "longitude": -80.53687
    },
    {
        "name": "Dixon Hall 351 Lake Shore Blvd E Respite",
        "address": "351 Lake Shore Blvd E",
        "latitude": 28.28877,
        "longitude": -81.32165
    },
    {
        "name": "HFS 195 Princes' Blvd",
        "address": "195 Princes' Blvd",
        "latitude": 43.06158,
        "longitude": -95.27712
    },
    {
        "name": "Dixon Hall 354 George St",
        "address": "354 George St",
        "latitude": 40.49481,
        "longitude": -74.44385
    },
    {
        "name": "Dixon Hall Heyworth House",
        "address": "2714 Danforth Ave",
        "latitude": 42.38944,
        "longitude": -83.05342
    },
    {
        "name": "Dixon Hall Schoolhouse",
        "address": "349 George St",
        "latitude": 40.49449,
        "longitude": -74.44377
    },
    {
        "name": "Eva's Satellite Scarborough Hotel Program",
        "address": "4584 Kingston Rd",
        "latitude": 36.51748,
        "longitude": -88.78904
    },
    {
        "name": "Fife House Denison Ave",
        "address": "70 Denison Ave",
        "latitude": 41.35549,
        "longitude": -71.96241
    },
    {
        "name": "Fife House Sherbourne St",
        "address": "490 Sherbourne St",
        "latitude": 27.01943,
        "longitude": -82.15432
    },
    {
        "name": "Fred Victor Centre Transition to Housing Dundas St E",
        "address": "386 Dundas St E",
        "latitude": 44.39263,
        "longitude": -93.72666
    },
    {
        "name": "Fred Victor Mary Sheffield House",
        "address": "512 Jarvis St",
        "latitude": 40.27869,
        "longitude": -81.00155
    },
    {
        "name": "Adelaide Resource Centre for Women",
        "address": "67 Adelaide St E",
        "latitude": 42.34202,
        "longitude": -83.05333
    },
    {
        "name": "Fred Victor Centre Fatima House",
        "address": "1059 College Street",
        "latitude": 32.49096,
        "longitude": -93.75289
    },
    {
        "name": "Fred Victor Centre Bethlehem United Shelter",
        "address": "1161 Caledonia Rd",
        "latitude": 36.83344,
        "longitude": -87.80215
    },
    {
        "name": "Fred Victor Uptown Hotel Program",
        "address": "185 Yorkland Blvd",
        "latitude": 39.743943,
        "longitude": -105.020089
    },
    {
        "name": "Fred Victor Centre 1A Strachan Ave Respite",
        "address": "1A Strachan Ave",
        "latitude": 40.43711,
        "longitude": -74.24052
    },
    {
        "name": "Fred Victor Elizabeth",
        "address": "81 Elizabeth Street",
        "latitude": 40.71801,
        "longitude": -73.99608
    },
    {
        "name": "Friends of Ruby",
        "address": "489 Queen Street East",
         "latitude":  43.65691,
        "longitude": -79.35859
    },
    {
        "name": "Good Shepherd Centre Barrett House",
        "address": "35 Sydenham St",
        "latitude": 43.17779,
        "longitude": -77.5394
    },
    {
        "name": "Good Shepherd Centre West End Hotel Program",
        "address": "335 Jarvis St",
        "latitude": 40.27685,
        "longitude": -81.00102
    },
    {
        "name": "HFS Kennedy Rd Women's Shelter",
        "address": "702 Kennedy Rd",
        "latitude": 43.72831,
        "longitude":-79.26632
    },
    {
        "name": "HFS 545 Lake Shore Blvd W Shelter",
        "address": "545 Lake Shore Blvd W",
        "latitude":43.63677,
        "longitude": -79.3989
    },
    {
        "name": "HFS - Lawrence East Shelter",
        "address": "4117 Lawrence Ave E",
        "latitude": 39.743943,
        "longitude": -105.020089
    },
    {
        "name": "HFS Willowdale Centre",
        "address": "5800 Yonge St",
        "latitude": 39.743943,
        "longitude": -105.020089
    },
    {
        "name": "HFS - Metro Strachan",
        "address": "22 Metropolitan Rd",
        "latitude": 39.743943,
        "longitude": -105.020089
    },
    {
        "name": "HFS Placer",
        "address": "101 Placer Ct",
        "latitude": 43.80254,
        "longitude": -79.3416
    },
    {
        "name": "HFS St. Clair Ave E Shelter",
        "address": "3576 St Clair Ave E",
        "latitude": 41.51469,
        "longitude": -81.66792
    },
    {
        "name": "Margaret's 21 Park Rd Respite",
        "address": "21 Park Rd",
        "latitude": 37.5753,
        "longitude": -122.34355
    },
    {
        "name": "Sagatay",
        "address": "26 Vaughan Rd",
        "latitude": 44.27961,
        "longitude": -69.81245
    },
    {
        "name": "Native Child & Family Services Toronto",
        "address": "558 Bathurst St",
        "latitude": 39.28448,
        "longitude": -76.77392
    },
    {
        "name": "Native Child & Family - Spadina",
        "address": "111 Spadina Rd",
        "latitude": 42.4322,
        "longitude": -73.26329
    },
    {
        "name": "Sistering",
        "address": "962 Bloor St W",
        "latitude": 42.99558,
        "longitude": -83.69215
    },
    {
        "name": "SVDP Amelie House",
        "address": "126 Pape Ave",
        "latitude": 43.66289,
        "longitude":  -79.33821
    },
    {
        "name": "SVDP Elisa House",
        "address": "60 Newcastle St",
        "latitude": 42.46773,
        "longitude": -70.98719
    }
]
